{
"type": "FeatureCollection",
"crs": { "type": "name", "properties": { "name": "urn:ogc:def:crs:OGC:1.3:CRS84" } },
"name": "Photo témoin",
"color": "#4f04a4",
"marker-width": "15",
"Outline width": "30",
"active": "true",
"interactive": "true",
"description": "Evolution du paysage à partir d'une carte postale ancienne",

"features": [
{ "type": "Feature", "properties": { "TYPOLOGIE": 29, "COMMUNE": "Négrondes" }, "geometry": { "type": "Point", "coordinates": [ 0.862461261140663, 45.347110091169483 ] } },
{ "type": "Feature", "properties": { "TYPOLOGIE": 1, "COMMUNE": "Firbeix" }, "geometry": { "type": "Point", "coordinates": [ 0.975636424702643, 45.601688070578852 ] } },
{ "type": "Feature", "properties": { "TYPOLOGIE": 2, "COMMUNE": "Mialet" }, "geometry": { "type": "Point", "coordinates": [ 0.904154190328431, 45.549642761491711 ] } },
{ "type": "Feature", "properties": { "TYPOLOGIE": 3, "COMMUNE": "Saint Priest les Fougères" }, "geometry": { "type": "Point", "coordinates": [ 1.012080511720709, 45.542380640765778 ] } },
{ "type": "Feature", "properties": { "TYPOLOGIE": 33, "COMMUNE": "Saint Priest les Fougères" }, "geometry": { "type": "Point", "coordinates": [ 1.011882023597849, 45.542648218169127 ] } },
{ "type": "Feature", "properties": { "TYPOLOGIE": 4, "COMMUNE": "La Coquille" }, "geometry": { "type": "Point", "coordinates": [ 0.981896198340072, 45.540462331591591 ] } },
{ "type": "Feature", "properties": { "TYPOLOGIE": 5, "COMMUNE": "La Coquille" }, "geometry": { "type": "Point", "coordinates": [ 0.977803863094622, 45.545982246852823 ] } },
{ "type": "Feature", "properties": { "TYPOLOGIE": 6, "COMMUNE": "La Coquille" }, "geometry": { "type": "Point", "coordinates": [ 0.976780644119654, 45.541255003470489 ] } },
{ "type": "Feature", "properties": { "TYPOLOGIE": 7, "COMMUNE": "Saint Jory de Chalais" }, "geometry": { "type": "Point", "coordinates": [ 0.900917949089381, 45.496325096356884 ] } },
{ "type": "Feature", "properties": { "TYPOLOGIE": 8, "COMMUNE": "Saint Jory de Chalais" }, "geometry": { "type": "Point", "coordinates": [ 0.897718571751598, 45.497831548600622 ] } },
{ "type": "Feature", "properties": { "TYPOLOGIE": 34, "COMMUNE": "Saint Jory de Chalais" }, "geometry": { "type": "Point", "coordinates": [ 0.897898805224187, 45.497788881144778 ] } },
{ "type": "Feature", "properties": { "TYPOLOGIE": 9, "COMMUNE": "Jumilhac le Grand" }, "geometry": { "type": "Point", "coordinates": [ 1.06147064959082, 45.493999490746923 ] } },
{ "type": "Feature", "properties": { "TYPOLOGIE": 10, "COMMUNE": "Jumilhac le Grand" }, "geometry": { "type": "Point", "coordinates": [ 1.061076746025019, 45.493329181099327 ] } },
{ "type": "Feature", "properties": { "TYPOLOGIE": 11, "COMMUNE": "Jumilhac le Grand" }, "geometry": { "type": "Point", "coordinates": [ 1.058169628736385, 45.495122429138689 ] } },
{ "type": "Feature", "properties": { "TYPOLOGIE": 12, "COMMUNE": "Saint Paul la Roche" }, "geometry": { "type": "Point", "coordinates": [ 0.99912287247251, 45.476831756559839 ] } },
{ "type": "Feature", "properties": { "TYPOLOGIE": 13, "COMMUNE": "Saint Paul la Roche" }, "geometry": { "type": "Point", "coordinates": [ 0.995304151903048, 45.481356708259419 ] } },
{ "type": "Feature", "properties": { "TYPOLOGIE": 18, "COMMUNE": "Thiviers" }, "geometry": { "type": "Point", "coordinates": [ 0.927302113691674, 45.417472804448749 ] } },
{ "type": "Feature", "properties": { "TYPOLOGIE": 19, "COMMUNE": "Thiviers" }, "geometry": { "type": "Point", "coordinates": [ 0.922483375623595, 45.411563398210852 ] } },
{ "type": "Feature", "properties": { "TYPOLOGIE": 20, "COMMUNE": "Thiviers" }, "geometry": { "type": "Point", "coordinates": [ 0.918221237179187, 45.417366699121956 ] } },
{ "type": "Feature", "properties": { "TYPOLOGIE": 21, "COMMUNE": "Thiviers" }, "geometry": { "type": "Point", "coordinates": [ 0.921431501778516, 45.413232601220891 ] } },
{ "type": "Feature", "properties": { "TYPOLOGIE": 22, "COMMUNE": "Nantheuil" }, "geometry": { "type": "Point", "coordinates": [ 0.950167466352453, 45.410975231546004 ] } },
{ "type": "Feature", "properties": { "TYPOLOGIE": 35, "COMMUNE": "Chalais" }, "geometry": { "type": "Point", "coordinates": [ 0.925453263088225, 45.508991653448575 ] } },
{ "type": "Feature", "properties": { "TYPOLOGIE": 30, "COMMUNE": "Chalais" }, "geometry": { "type": "Point", "coordinates": [ 0.927232155109457, 45.508987114372715 ] } },
{ "type": "Feature", "properties": { "TYPOLOGIE": 31, "COMMUNE": "Saint Pierre de Frugie" }, "geometry": { "type": "Point", "coordinates": [ 0.998955171843596, 45.57305946227018 ] } },
{ "type": "Feature", "properties": { "TYPOLOGIE": 32, "COMMUNE": "Saint Pierre de Frugie" }, "geometry": { "type": "Point", "coordinates": [ 0.997776775842237, 45.573576229365088 ] } },
{ "type": "Feature", "properties": { "TYPOLOGIE": 14, "COMMUNE": "Saint Martin de Fressengeas" }, "geometry": { "type": "Point", "coordinates": [ 0.845655744115828, 45.442432879357277 ] } },
{ "type": "Feature", "properties": { "TYPOLOGIE": 15, "COMMUNE": "Saint Martin de Fressengeas" }, "geometry": { "type": "Point", "coordinates": [ 0.847817198901204, 45.440959106605462 ] } },
{ "type": "Feature", "properties": { "TYPOLOGIE": 16, "COMMUNE": "Saint Jean de Côle" }, "geometry": { "type": "Point", "coordinates": [ 0.838691670912947, 45.417820670565575 ] } },
{ "type": "Feature", "properties": { "TYPOLOGIE": 17, "COMMUNE": "Saint Jean de Côle" }, "geometry": { "type": "Point", "coordinates": [ 0.836904500374374, 45.422007609102643 ] } },
{ "type": "Feature", "properties": { "TYPOLOGIE": 23, "COMMUNE": "Eyzerac" }, "geometry": { "type": "Point", "coordinates": [ 0.919716871773158, 45.387900742567311 ] } },
{ "type": "Feature", "properties": { "TYPOLOGIE": 24, "COMMUNE": "Corgnac sur l'Isle" }, "geometry": { "type": "Point", "coordinates": [ 0.94974086377148, 45.3755019165025 ] } },
{ "type": "Feature", "properties": { "TYPOLOGIE": 25, "COMMUNE": "Corgnac sur l'Isle" }, "geometry": { "type": "Point", "coordinates": [ 0.948512907570513, 45.376107453205989 ] } },
{ "type": "Feature", "properties": { "TYPOLOGIE": 28, "COMMUNE": "Vaunac" }, "geometry": { "type": "Point", "coordinates": [ 0.864012740722509, 45.366025489784768 ] } },
{ "type": "Feature", "properties": { "TYPOLOGIE": 26, "COMMUNE": "Saint Pierre de Côle" }, "geometry": { "type": "Point", "coordinates": [ 0.804264538706924, 45.379364387846721 ] } },
{ "type": "Feature", "properties": { "TYPOLOGIE": 27, "COMMUNE": "Saint Pierre de Côle" }, "geometry": { "type": "Point", "coordinates": [ 0.789280773974773, 45.36821611965587 ] } }
]
}
